{
"type": "FeatureCollection",
"name": "palacios_LatAm",
"crs": { "type": "name", "properties": { "name": "urn:ogc:def:crs:OGC:1.3:CRS84" } },
"features": [
{ "type": "Feature", "properties": { "Name": "Palacio de la Moneda", "City": "Santiago de Chile", "Country": "Chile", "Date": 1784, "Style": " Neoclásico", "Function": " sede del presidente de la República", "Latitude": -33.4429091, "Longitude": -70.6538699 }, "geometry": { "type": "Point", "coordinates": [ -70.6538699, -33.4429091 ] } },
{ "type": "Feature", "properties": { "Name": "Casa Rosada", "City": " Buenos Aires", "Country": " Argentina", "Date": 1873, "Style": " Italianizante-eclectico", "Function": " sede del presidente de la República", "Latitude": -34.6080556, "Longitude": -58.3724665 }, "geometry": { "type": "Point", "coordinates": [ -58.3724665, -34.6080556 ] } },
{ "type": "Feature", "properties": { "Name": "Palacio Estévez", "City": " Montevideo", "Country": " Uruguay", "Date": 1873, "Style": " Neoclásico", "Function": " sede del Poder Ejecutivo", "Latitude": -34.907236, "Longitude": -56.2005253 }, "geometry": { "type": "Point", "coordinates": [ -56.2005253, -34.907236 ] } },
{ "type": "Feature", "properties": { "Name": "Palacio de los López", "City": " Asunción", "Country": " Paraguay", "Date": 1857, "Style": " Neoclásico", "Function": " sede del Poder Ejecutivo y del presidente de la República", "Latitude": -25.277636, "Longitude": -57.637569 }, "geometry": { "type": "Point", "coordinates": [ -57.637569, -25.277636 ] } },
{ "type": "Feature", "properties": { "Name": "Palácio do Planalto", "City": " Brasilia", "Country": " Brazil", "Date": 1958, "Style": " Modernista", "Function": " sede del Poder Ejecutivo", "Latitude": -15.798999, "Longitude": -47.860834 }, "geometry": { "type": "Point", "coordinates": [ -47.860834, -15.798999 ] } },
{ "type": "Feature", "properties": { "Name": "Palacio Quemado", "City": " La Paz", "Country": " Bolivia", "Date": 1846, "Style": " Beaux Arts", "Function": " sede del Poder Ejecutivo y del presidente del Estado Plurinacional", "Latitude": -16.495833, "Longitude": -68.133611 }, "geometry": { "type": "Point", "coordinates": [ -68.133611, -16.495833 ] } },
{ "type": "Feature", "properties": { "Name": "Palacio de Gobierno", "City": " Lima", "Country": " Perú", "Date": 1937, "Style": " Neobarroco", "Function": " sede del Poder Ejecutivo y del presidente de la República", "Latitude": -12.04514, "Longitude": -77.02989 }, "geometry": { "type": "Point", "coordinates": [ -77.02989, -12.04514 ] } },
{ "type": "Feature", "properties": { "Name": "Palacio de Miraflores", "City": " Caracas", "Country": " Venezuela", "Date": 1884, "Style": " Neoclásico", "Function": " sede del presidente de la República", "Latitude": 10.508088, "Longitude": -66.919359 }, "geometry": { "type": "Point", "coordinates": [ -66.919359, 10.508088 ] } },
{ "type": "Feature", "properties": { "Name": "Palacio de Nariño", "City": " Bogotá", "Country": " Colombia", "Date": 1906, "Style": " Neoclásico", "Function": " sede del presidente de la República", "Latitude": 4.595556, "Longitude": -74.0775 }, "geometry": { "type": "Point", "coordinates": [ -74.0775, 4.595556 ] } },
{ "type": "Feature", "properties": { "Name": "Gouvernementsgebouw", "City": " Paramaribo", "Country": " Suriname", "Date": 1730, "Style": " Barroco", "Function": " sede del presidente de la República", "Latitude": 5.826814, "Longitude": -55.151272 }, "geometry": { "type": "Point", "coordinates": [ -55.151272, 5.826814 ] } },
{ "type": "Feature", "properties": { "Name": "Palacio de Carondelet", "City": " Quito", "Country": " Ecuador", "Date": 1790, "Style": " Barroco", "Function": " sede del Poder Ejecutivo y del presidente de la República", "Latitude": -0.219716, "Longitude": -78.5147961 }, "geometry": { "type": "Point", "coordinates": [ -78.5147961, -0.219716 ] } },
{ "type": "Feature", "properties": { "Name": "State House", "City": " Georgetown", "Country": " Guyana", "Date": 1858, "Style": " Italianizante-eclectico", "Function": " sede del presidente de la República", "Latitude": 6.817778, "Longitude": -58.162778 }, "geometry": { "type": "Point", "coordinates": [ -58.162778, 6.817778 ] } },
{ "type": "Feature", "properties": { "Name": "Casa Presidencial de Trinidad y Tobago", "City": "  Puerto España", "Country": " Trinidad y Tobago", "Date": 1876, "Style": " Italianizante-eclectico", "Function": " sede del presidente de la República", "Latitude": 10.677646, "Longitude": -61.511979 }, "geometry": { "type": "Point", "coordinates": [ -61.511979, 10.677646 ] } },
{ "type": "Feature", "properties": { "Name": "Hôtel de préfecture", "City": " Cayenne", "Country": " Guayana Francesa", "Date": 1749, "Style": " Neoclásico", "Function": " Sede de la Prefectura de la Guayana Francesa", "Latitude": 4.9375, "Longitude": -52.3322 }, "geometry": { "type": "Point", "coordinates": [ -52.3322, 4.9375 ] } }
]
}
